City_ID,City,Lat,Lng,Max Temp,Humidity,Cloudiness,Wind Speed,Country,Date
0,okhotsk,59.3833,143.3,-27.99,96,57,2.47,RU,1708273948
1,vila franca do campo,37.7167,-25.4333,18.27,99,100,2.75,PT,1708273954
2,iqaluit,63.7506,-68.5145,-33.15,68,0,11.32,CA,1708273955
3,yellowknife,62.456,-114.3525,-23.66,90,20,4.63,CA,1708273956
4,houghton,47.1219,-88.569,-2.92,70,100,8.75,US,1708273956
5,whitehorse,60.7161,-135.0538,-11.06,85,75,0.0,CA,1708273956
6,port-aux-francais,-49.35,70.2167,4.81,77,68,16.01,TF,1708273957
7,vorgashor,67.5833,63.95,-14.9,94,100,9.19,RU,1708273957
8,ilhabela,-23.7781,-45.3581,27.66,74,43,2.53,BR,1708273957
9,ust-nera,64.5667,143.2,-33.76,93,100,1.0,RU,1708273957
10,olonkinbyen,70.9221,-8.7187,-0.23,87,66,4.08,SJ,1708273958
11,bantay,17.5847,120.3892,23.87,83,1,2.74,PH,1708273958
12,hammerfest,70.6634,23.6821,-1.75,69,40,5.14,NO,1708273958
13,humahuaca,-23.2054,-65.3505,21.61,43,66,2.12,AR,1708273867
14,ushuaia,-54.8,-68.3,13.81,51,40,6.17,AR,1708273815
15,fort bragg,35.139,-79.006,6.01,38,0,1.54,US,1708273960
16,yuzhno-kurilsk,44.0306,145.8556,-0.35,78,10,3.38,RU,1708273960
17,waitangi,-43.9535,-176.5597,16.57,97,10,1.34,NZ,1708273960
18,tiksi,71.6872,128.8694,-36.09,98,89,3.39,RU,1708273961
19,adamstown,-25.066,-130.1015,24.3,77,100,5.02,PN,1708273961
20,glazov,58.1394,52.6584,-8.05,92,100,6.9,RU,1708273961
21,la passe,45.5549,-0.8967,12.13,90,100,4.07,FR,1708273961
22,college,64.8569,-147.8028,-17.82,66,75,0.0,US,1708273687
23,margaret river,-33.95,115.0667,24.68,52,100,5.61,AU,1708273962
24,isafjordur,66.0755,-23.124,3.02,87,40,1.03,IS,1708273962
25,vilyuchinsk,52.9306,158.4028,-14.85,66,71,4.14,RU,1708273962
26,dunedin,-45.8742,170.5036,16.61,49,100,3.93,NZ,1708273780
27,lospalos,-8.5186,127.0025,23.19,93,79,1.39,TL,1708273963
28,al jumum,21.6169,39.6981,22.17,39,6,5.32,SA,1708273963
29,gulu,2.7746,32.299,31.24,27,100,2.63,UG,1708273963
30,cidade velha,14.9167,-23.6167,31.26,33,0,9.26,CV,1708273963
31,afaahiti,-17.75,-149.2833,25.93,81,83,6.54,PF,1708273963
32,blackmans bay,-43.0167,147.3167,14.18,78,44,1.83,AU,1708273964
33,saipan,15.1355,145.701,24.39,94,75,4.63,MP,1708273964
34,childress,34.4264,-100.204,3.29,65,0,3.6,US,1708273964
35,hermanus,-34.4187,19.2345,22.89,54,0,8.08,ZA,1708273964
36,nuevo casas grandes,30.4167,-107.9167,12.04,36,96,1.42,MX,1708273965
37,bredasdorp,-34.5322,20.0403,20.15,64,0,7.54,ZA,1708273965
38,port mathurin,-19.6833,63.4167,26.53,72,10,6.61,MU,1708273965
39,fale old settlement,-9.3852,-171.2468,28.83,78,100,4.99,TK,1708273965
40,weiser,44.251,-116.9693,1.29,94,100,1.31,US,1708273923
41,saldanha,-33.0117,17.9442,29.03,73,2,5.25,ZA,1708273966
42,bethel,41.3712,-73.414,0.88,51,0,7.2,US,1708273966
43,mlowo,-9.0,32.9833,17.6,94,100,0.97,TZ,1708273966
44,mumford,5.2618,-0.759,28.7,78,63,5.73,GH,1708273966
45,freetown,8.484,-13.2299,28.77,71,15,4.75,SL,1708273967
46,ribas do rio pardo,-20.4431,-53.7592,29.51,66,76,5.45,BR,1708273967
47,grytviken,-54.2811,-36.5092,5.47,95,96,6.09,GS,1708273967
48,anadyr,64.75,177.4833,-15.72,77,20,20.0,RU,1708273968
49,edinburgh of the seven seas,-37.0676,-12.3116,15.66,65,29,8.4,SH,1708273968
50,ribeira grande,38.5167,-28.7,19.32,55,20,4.63,PT,1708273968
51,klyuchi,52.2667,79.1667,-25.27,99,51,2.36,RU,1708273968
52,albany,42.6001,-73.9662,-0.54,50,89,1.79,US,1708273917
53,mishelevka,52.8575,103.1719,-34.58,100,74,0.66,RU,1708273969
54,nova sintra,14.8667,-24.7167,20.71,80,0,8.78,CV,1708273969
55,tual,-5.6667,132.75,28.17,78,87,3.33,ID,1708273969
56,ballycastle,55.2044,-6.243,11.97,80,39,4.36,GB,1708273969
57,alice springs,-23.7,133.8833,27.9,59,40,3.6,AU,1708273970
58,el haouaria,37.05,11.0144,16.01,75,0,2.19,TN,1708273970
59,kodiak,57.79,-152.4072,3.73,100,100,3.6,US,1708273970
60,lhasa,29.65,91.1,2.56,33,91,1.9,CN,1708273970
61,tralee,52.2704,-9.7026,12.14,82,40,6.17,IE,1708273971
62,invercargill,-46.4,168.35,17.23,65,95,5.81,NZ,1708273971
63,tsiombe,-25.3,45.4833,23.68,81,30,7.72,MG,1708273971
64,lihue,21.9789,-159.3672,20.77,60,20,8.75,US,1708273972
65,xianju,28.85,120.7333,15.54,91,100,1.72,CN,1708273972
66,rongelap,11.1635,166.8941,26.26,81,73,6.54,MH,1708273972
67,cururupu,-1.8283,-44.8683,27.54,90,98,2.8,BR,1708273973
68,west island,-12.1568,96.8225,27.99,78,42,3.6,CC,1708273973
69,beyneu,45.3167,55.2,-5.53,39,48,5.8,KZ,1708273973
70,elassona,39.8947,22.1886,12.63,71,3,1.09,GR,1708273974
71,kota belud,6.351,116.4305,24.74,80,49,2.93,MY,1708273974
72,kilju,40.9642,129.3278,3.95,83,100,0.87,KP,1708273974
73,utrik,11.2278,169.8474,26.19,84,87,6.24,MH,1708273975
74,nar'yan-mar,67.6713,53.087,-7.72,90,100,8.94,RU,1708273975
75,conduaga,8.862,117.4893,25.36,80,3,1.38,PH,1708273975
76,mossel bay,-34.1831,22.146,21.96,76,0,8.33,ZA,1708273976
77,jinghong,21.991,100.7341,15.46,29,0,1.53,CN,1708273976
78,nikolayevsk-on-amure,53.1406,140.73,-18.43,96,100,1.94,RU,1708273976
79,tazovsky,67.4667,78.7,-18.84,87,100,10.45,RU,1708273976
80,alo,7.4178,6.7371,38.68,17,20,2.02,NG,1708273977
81,mabaruma,8.2,-59.7833,32.44,43,58,4.1,GY,1708273977
82,badger,64.8,-147.5333,-17.86,72,75,0.0,US,1708273977
83,bermeo,43.4209,-2.7215,18.23,78,74,3.93,ES,1708273978
84,puerto natales,-51.7236,-72.4875,18.25,48,75,12.86,CL,1708273978
85,najran,17.4924,44.1277,23.36,31,13,3.31,SA,1708273978
86,cova figueira,14.8905,-24.2934,22.91,64,0,7.4,CV,1708273978
87,darwin,-12.4611,130.8418,28.99,85,75,5.66,AU,1708273978
88,namibe,-15.1961,12.1522,25.24,79,40,3.51,AO,1708273980
89,necochea,-38.5473,-58.7368,24.17,64,65,4.84,AR,1708273980
90,anaconda,46.1285,-112.9423,-9.45,62,99,2.19,US,1708273980
91,tumut,-35.3,148.2167,19.15,71,97,1.66,AU,1708273980
92,la ronge,55.1001,-105.2842,-16.86,71,20,4.12,CA,1708273981
93,rumbek,6.802,29.6912,33.65,15,84,2.07,SS,1708273981
94,punta arenas,-53.15,-70.9167,16.06,55,0,9.77,CL,1708273884
95,calvinia,-31.4707,19.776,29.81,10,0,4.64,ZA,1708273982
96,san antonio,29.4241,-98.4936,8.95,43,0,3.6,US,1708273867
97,kiunga,-6.1219,141.2906,23.62,100,99,0.39,PG,1708273982
98,bel ombre,-4.6167,55.4167,29.91,74,40,7.72,SC,1708273983
99,minas de marcona,-15.2119,-75.1103,24.55,63,65,4.33,PE,1708273983
100,guarapari,-20.6667,-40.4975,27.16,80,100,2.08,BR,1708273822
101,holma,9.9008,13.0567,32.27,11,4,1.62,NG,1708273983
102,kapa'a,22.0752,-159.319,21.18,61,20,8.75,US,1708273983
103,kulhudhuffushi,6.6221,73.07,28.07,75,68,5.1,MV,1708273984
104,chonchi,-42.6128,-73.8092,17.56,38,86,1.93,CL,1708273912
105,humaita,-7.5061,-63.0208,30.25,67,99,1.84,BR,1708273984
106,antofagasta,-23.65,-70.4,23.6,65,98,3.18,CL,1708273701
107,midvagur,62.0511,-7.1939,7.46,100,75,3.09,FO,1708273984
108,st. john's,47.5649,-52.7093,-2.07,95,100,13.89,CA,1708273970
109,mil'kovo,55.6078,37.7956,-1.92,91,89,4.22,RU,1708273985
110,wildeshausen,52.9,8.4333,8.95,94,100,6.17,DE,1708273985
111,peniscola,40.3359,0.3613,19.82,71,100,2.65,ES,1708273985
112,puerto ayora,-0.7393,-90.3518,29.98,100,61,3.13,EC,1708273985
113,qarazhal,48.0078,70.7903,-23.28,91,8,4.28,KZ,1708273986
114,wailua homesteads,22.0669,-159.378,20.44,62,20,8.75,US,1708273986
115,tsetserleg,47.475,101.4542,-31.78,95,11,1.36,MN,1708273986
116,puerto maldonado,-12.6,-69.1833,32.22,66,75,3.6,PE,1708273986
117,fortuna,40.5982,-124.1573,10.52,85,0,7.2,US,1708273987
118,labrador city,52.9463,-66.9114,-22.05,64,100,1.03,CA,1708273811
119,kargil,34.5667,76.1,-7.06,89,100,2.09,IN,1708273987
120,ghadamis,30.1337,9.5007,22.87,17,100,4.77,LY,1708273987
121,anna regina,7.2644,-58.5077,29.11,62,42,4.85,GY,1708273987
122,ruidoso,33.3317,-105.673,10.03,100,0,0.0,US,1708273987
123,tondano,1.3038,124.9112,20.05,87,67,0.88,ID,1708273988
124,aasiaat,68.7098,-52.8699,-13.85,91,100,4.49,GL,1708273988
125,bilibino,68.0546,166.4372,-26.14,85,99,1.61,RU,1708273988
126,georgetown,5.4112,100.3354,28.96,91,20,2.06,MY,1708273834
127,uren',57.4552,45.7852,-4.7,96,100,2.92,RU,1708273989
128,santa elena de uairen,4.6167,-61.1333,31.08,31,10,3.49,VE,1708273989
129,hauterive,46.0901,3.4459,12.42,75,100,0.81,FR,1708273989
130,georgievka,49.3314,81.5761,-32.27,94,93,1.78,KZ,1708273989
131,arraial do cabo,-22.9661,-42.0278,28.98,74,0,6.17,BR,1708273989
132,praia da vitoria,38.7333,-27.0667,19.14,68,20,3.34,PT,1708273990
133,uturoa,-16.7333,-151.4333,28.08,79,100,5.54,PF,1708273990
134,cabo san lucas,22.8909,-109.9124,22.17,56,0,0.0,MX,1708273829
135,kavaratti,10.5669,72.642,28.08,71,16,1.89,IN,1708273990
136,papatowai,-46.5619,169.4708,15.88,67,100,7.45,NZ,1708273991
137,egilsstadir,65.2653,-14.3948,5.95,75,0,2.06,IS,1708273991
138,thompson,55.7435,-97.8558,-21.91,64,20,4.63,CA,1708273991
139,ilulissat,69.2167,-51.1,-4.99,80,20,4.12,GL,1708273991
140,balykshi,47.0667,51.8667,-5.0,46,0,7.0,KZ,1708273992
141,suoyarvi,62.0833,32.35,-7.77,89,50,4.25,RU,1708273992
142,carmo do cajuru,-20.1842,-44.7711,29.57,50,61,3.79,BR,1708273821
143,solnechnyy,50.7214,136.6319,-14.98,93,100,3.72,RU,1708273993
144,bikenibeu village,1.3673,173.1241,27.98,89,75,3.09,KI,1708273993
145,gargalianoi,37.0667,21.6333,12.34,77,0,3.03,GR,1708273994
146,olyokminsk,60.3736,120.4264,-27.49,90,100,3.81,RU,1708273994
147,port saint john's,-31.6229,29.5448,21.95,86,100,3.28,ZA,1708273994
148,hailar,49.2,119.7,-22.46,97,100,5.17,CN,1708273994
149,hobyo,5.3505,48.5268,26.21,74,73,7.07,SO,1708273995
150,petropavlovsk-kamchatsky,53.0452,158.6483,-15.67,83,0,6.26,RU,1708273995
151,howrah,22.5892,88.3103,23.0,78,0,3.09,IN,1708273995
152,hadibu,12.65,54.0333,24.96,58,58,2.57,YE,1708273995
153,kuraymah,18.55,31.85,22.51,12,84,5.4,SD,1708273996
154,tamanrasset,22.785,5.5228,23.95,9,0,7.2,DZ,1708273996
155,east grand forks,47.93,-97.0245,-2.87,68,20,5.66,US,1708273996
156,mount pearl,47.5166,-52.7813,-2.53,95,100,13.89,CA,1708273997
157,khanty-mansiysk,61.0042,69.0019,-17.72,65,0,6.0,RU,1708273997
158,otaki,-40.7583,175.15,17.87,84,69,0.89,NZ,1708273997
159,borgarnes,64.5383,-21.9206,7.03,98,100,2.66,IS,1708273998
160,kindu,-2.95,25.95,23.07,95,100,0.74,CD,1708273998
161,conceicao do araguaia,-8.2578,-49.2647,33.33,55,50,1.09,BR,1708273998
162,chkalovsk,56.7647,43.2433,-6.3,88,100,5.61,RU,1708273998
163,hithadhoo,-0.6,73.0833,28.41,80,100,5.16,MV,1708273999
164,thai binh,20.45,106.3333,22.1,91,64,3.17,VN,1708273742
165,khandyga,62.6667,135.6,-31.61,98,100,1.62,RU,1708273999
166,polyarnyy,69.1989,33.4478,-5.28,85,89,9.51,RU,1708273999
167,ust-tsilma,65.441,52.1498,-9.1,92,100,5.81,RU,1708274000
168,puerto baquerizo moreno,-0.9,-89.6,28.55,74,40,1.54,EC,1708274000
169,benguela,-12.5763,13.4055,29.03,75,68,3.96,AO,1708274001
170,san patricio,28.017,-97.5169,8.92,39,0,4.04,US,1708274001
171,marang,5.2056,103.2059,26.95,87,55,0.63,MY,1708274001
172,berezovo,63.9381,65.0419,-13.44,87,100,8.43,RU,1708274001
173,mount gambier,-37.8333,140.7667,12.36,93,8,2.76,AU,1708274002
174,susuman,62.7833,148.1667,-36.12,93,100,0.89,RU,1708274000
175,tindouf,27.6711,-8.1474,23.25,20,0,9.26,DZ,1708274001
176,bullsbrook,-31.6667,116.0,36.03,17,100,8.75,AU,1708274002
177,conel,6.2022,125.1872,24.32,87,33,3.28,PH,1708274003
178,summerlin south,36.1027,-115.3811,11.88,49,1,1.14,US,1708273755
179,prienai,54.6333,23.95,-0.4,69,100,0.85,LT,1708274003
180,bardai,11.65,7.2333,30.32,13,86,3.52,NG,1708274003
181,eregli,37.5133,34.0467,3.79,95,100,1.44,TR,1708274004
182,potosi,-19.5836,-65.7531,14.34,50,99,3.92,BO,1708274004
183,jamestown,42.097,-79.2353,-4.23,68,99,8.49,US,1708273827
184,hrazdan,40.4975,44.7662,-1.28,93,83,2.59,AM,1708274004
185,howard springs,-12.497,131.047,28.95,94,100,3.9,AU,1708274005
186,makokou,0.5738,12.8642,26.93,65,99,1.69,GA,1708274005
187,bac lieu,9.285,105.7244,25.66,84,6,5.09,VN,1708274005
188,chibougamau,49.9168,-74.3659,-17.21,71,0,2.57,CA,1708273946
189,dudinka,69.4058,86.1778,-24.1,90,100,4.92,RU,1708273953
190,ain leuh,33.2921,-5.3384,14.03,41,0,4.99,MA,1708274006
191,brisas de zicatela,15.8369,-97.0419,29.29,65,20,3.6,MX,1708274006
192,jaguaribe,-5.8906,-38.6219,33.69,50,87,2.37,BR,1708274006
193,greenland,43.0362,-70.8328,-0.08,51,75,4.63,US,1708274006
194,yemva,62.59,50.8594,-7.27,93,100,4.96,RU,1708274007
195,santa maria del oro,25.9333,-105.3667,14.97,40,0,1.6,MX,1708274007
196,nova vicosa,-17.8919,-39.3719,25.8,87,100,4.16,BR,1708274007
197,hakui,36.8833,136.7833,10.78,80,1,1.61,JP,1708274008
198,mejit,10.2753,170.8646,27.04,78,64,7.1,MH,1708274008
199,bubaque,11.2833,-15.8333,26.38,76,3,5.31,GW,1708274008
200,porto novo,6.4965,2.6036,31.9,61,8,4.74,BJ,1708274008
201,new norfolk,-42.7826,147.0587,14.84,92,80,0.89,AU,1708274008
202,codrington,-38.2667,141.9667,13.33,91,9,2.65,AU,1708274009
203,port elizabeth,-33.918,25.5701,22.4,73,75,7.2,ZA,1708274009
204,moranbah,-22.0016,148.0466,21.91,83,70,4.1,AU,1708273903
205,al marsa,36.8782,10.3247,16.94,77,20,3.6,TN,1708274010
206,gadzhiyevo,69.2551,33.3362,-5.88,86,89,9.51,RU,1708274010
207,general conesa,-40.1,-64.4333,28.48,15,35,1.46,AR,1708274010
208,stanley,54.868,-1.6985,11.77,82,40,6.69,GB,1708274010
209,ancud,-41.8697,-73.8203,17.64,57,49,3.74,CL,1708274010
210,longyearbyen,78.2186,15.6401,-12.09,61,75,6.69,SJ,1708274012
211,al ghayzah,16.2079,52.176,24.62,68,20,4.01,YE,1708274012
212,touros,-5.1989,-35.4608,30.92,63,35,4.69,BR,1708274012
213,chandur,19.7333,79.1833,27.15,25,4,2.82,IN,1708274012
214,hamilton,39.1834,-84.5333,0.35,57,0,6.17,US,1708273780
215,sardarshahr,28.4333,74.4833,22.98,19,100,5.3,IN,1708274013
216,ocean shores,46.9737,-124.1563,6.83,94,100,3.09,US,1708274013
217,warmbad,-28.45,18.7333,35.3,7,0,4.64,NA,1708274013
218,akim swedru,5.8938,-1.0164,32.04,55,79,3.72,GH,1708274013
219,sao vicente,-23.9631,-46.3919,33.1,74,75,2.68,BR,1708274014
220,coxen hole,16.3244,-86.5366,27.6,78,75,5.14,HN,1708274014
221,palikir - national government center,6.9248,158.1611,26.41,83,100,2.57,FM,1708273780
222,san antonio de pale,-1.4014,5.6325,29.3,73,70,3.5,GQ,1708274014
223,itoman,26.1247,127.6694,22.21,94,75,6.69,JP,1708274015
224,santana,-0.0583,-51.1817,30.1,74,100,3.09,BR,1708274015
225,kitimat,54.0524,-128.6534,1.49,75,95,0.89,CA,1708274015
226,hau-ri,41.2006,129.4703,4.29,82,100,1.75,KP,1708274015
227,lebu,-37.6167,-73.65,16.86,66,0,9.77,CL,1708274015
228,qaqortoq,60.7167,-46.0333,0.63,85,100,1.09,GL,1708274016
229,constantia,44.1833,28.65,7.61,84,80,4.42,RO,1708273959
230,fedorovka,53.6314,62.7078,-20.86,89,5,3.51,KZ,1708274016
231,shimoda,34.6667,138.95,12.28,79,88,3.97,JP,1708274016
232,serdar,38.9764,56.2757,-2.09,95,100,1.59,TM,1708274017
233,kampene,-3.6,26.6667,22.06,93,99,0.55,CD,1708274017
234,kailua-kona,19.6406,-155.9956,20.33,83,20,1.54,US,1708274017
235,revda,56.801,59.9303,-10.11,70,0,5.27,RU,1708274017
236,iskateley,67.6803,53.1512,-7.77,90,100,8.94,RU,1708274017
237,isla vista,34.4133,-119.861,14.9,86,75,4.12,US,1708273856
238,douz,33.4663,9.0203,16.87,62,99,9.46,TN,1708274018
239,katabu,-4.9333,122.5167,24.54,93,91,0.35,ID,1708274018
240,flying fish cove,-10.4217,105.6791,26.82,83,40,2.06,CX,1708274019
241,arcachon,44.5875,-1.0519,14.18,82,0,2.57,FR,1708274019
242,vila velha,-20.3297,-40.2925,27.97,87,40,5.14,BR,1708274019
243,scarborough,54.2797,-0.4044,12.76,78,34,1.79,GB,1708273920
244,baiyin,36.5583,104.2081,-7.94,29,42,3.52,CN,1708274020
245,port macquarie,-31.4333,152.9167,21.61,88,99,1.93,AU,1708274020
246,mudgee,-32.5943,149.5871,15.9,84,100,1.49,AU,1708274020
247,zhangjiajie,29.1294,110.4783,18.14,90,69,2.5,CN,1708273947
248,kankan,10.3854,-9.3057,37.53,8,21,1.99,GN,1708274021
249,tarauaca,-8.1614,-70.7656,27.25,76,100,1.91,BR,1708274021
250,raton,36.9034,-104.4391,-1.81,86,0,4.12,US,1708274021
251,zhanibek,49.4167,46.85,-4.37,75,100,5.77,KZ,1708274021
252,remire-montjoly,4.9167,-52.2667,30.02,66,75,7.2,GF,1708274021
253,juankoski,63.0667,28.35,-7.02,93,4,2.33,FI,1708274022
254,inverloch,-38.6333,145.7167,14.69,87,8,3.07,AU,1708274022
255,lompoc,34.6391,-120.4579,14.91,67,75,5.36,US,1708274022
256,baharly,38.4362,57.4316,-0.26,86,96,3.18,TM,1708274022
257,morehead city,34.7229,-76.726,7.24,63,0,2.57,US,1708274022
258,buta,2.7858,24.73,28.59,54,93,1.38,CD,1708274023
259,san matias,-16.3667,-58.4,38.41,32,43,2.6,BO,1708274023
260,hawaiian paradise park,19.5933,-154.9731,21.73,86,100,4.12,US,1708274023
261,east porterville,36.0574,-118.9757,14.66,93,0,0.0,US,1708274023
262,whitby,54.4877,-0.615,12.81,79,20,3.13,GB,1708273876
263,mormugao,15.4,73.8,25.19,75,9,2.93,IN,1708274024
264,maitum,6.0392,124.4986,26.23,82,8,2.1,PH,1708274024
265,evergreen,39.6333,-105.3172,4.76,31,76,1.34,US,1708274024
266,masterton,-40.9597,175.6575,17.28,81,19,5.08,NZ,1708274025
267,alta,69.9689,23.2717,-2.41,83,75,19.22,NO,1708274025
268,aberdeen,57.1437,-2.0981,12.33,70,40,3.6,GB,1708273809
269,jeddah,21.5169,39.2192,24.92,36,0,6.69,SA,1708273696
270,ambovombe,-25.1667,46.0833,23.56,81,50,8.9,MG,1708274026
271,kribi,2.95,9.9167,29.53,70,67,4.55,CM,1708274026
272,gorontalo,0.5412,123.0595,22.88,92,94,1.77,ID,1708274026
273,saint-junien,45.8833,0.9,11.32,92,100,1.74,FR,1708274026
274,tofol,5.3248,163.0078,28.0,75,84,4.38,FM,1708274026
275,villa bruzual,9.3328,-69.1208,36.1,30,24,2.38,VE,1708274027
276,auna,10.1881,4.7232,34.67,16,74,2.7,NG,1708274027
277,tateyama,34.9833,139.8667,15.05,73,23,7.11,JP,1708274027
278,kitui,-1.367,38.0106,24.6,49,100,2.69,KE,1708274027
279,udachny,66.4167,112.4,-26.42,75,100,5.21,RU,1708274028
280,quelimane,-17.8786,36.8883,29.97,66,40,4.22,MZ,1708274028
281,rio grande,-32.035,-52.0986,28.06,75,29,7.21,BR,1708274028
282,kirakira,-10.4544,161.9205,26.84,87,100,2.41,SB,1708274028
283,altamira,-3.2033,-52.2064,27.99,89,96,2.41,BR,1708274028
284,miches,18.9836,-69.0476,29.11,53,2,6.33,DO,1708274029
285,avarua,-21.2078,-159.775,24.03,78,99,1.54,CK,1708274029
286,odienne,9.51,-7.5692,37.59,12,3,1.36,CI,1708274032
287,ugoofaaru,5.6667,73.0,28.22,80,58,7.62,MV,1708274032
288,juan griego,11.0817,-63.9655,29.07,61,6,8.75,VE,1708274032
289,haiku-pauwela,20.9219,-156.3051,20.02,84,100,4.12,US,1708274033
290,lata,40.1629,-8.3327,19.95,65,81,1.69,PT,1708274033
291,selfoss,63.9331,-20.9971,4.47,97,95,3.58,IS,1708274033
292,kenai,60.5544,-151.2583,0.03,80,100,6.17,US,1708274019
293,tambura,5.6,27.4667,29.62,19,77,1.94,SS,1708274034
294,labytnangi,66.6572,66.4183,-13.96,95,100,7.72,RU,1708274034
295,leninskoye,41.7589,69.3864,-0.65,97,100,3.47,KZ,1708274035
296,weno,7.4515,151.8468,27.78,76,27,10.58,FM,1708274035
297,karratha,-20.7377,116.8463,29.11,64,1,6.82,AU,1708274035
298,carnarvon,-24.8667,113.6333,27.05,72,51,2.67,AU,1708274036
299,terenozek,45.05,64.9833,-9.42,43,100,9.77,KZ,1708274036
300,talnakh,69.4865,88.3972,-24.33,97,100,6.55,RU,1708273998
301,banda aceh,5.5577,95.3222,26.68,80,98,4.46,ID,1708274037
302,kerema,-7.9631,145.7785,26.35,81,68,1.39,PG,1708274037
303,atafu village,-8.5421,-172.5159,28.72,78,99,5.07,TK,1708273849
304,virginia,37.5481,-77.4467,5.02,41,75,4.12,US,1708273839
305,walvis bay,-22.9575,14.5053,22.53,53,0,2.06,NA,1708274038
306,nuku'alofa,-21.1333,-175.2,26.19,78,20,6.69,TO,1708274038
307,bridlington,54.0831,-0.1919,13.27,78,43,0.89,GB,1708274039
308,tura,25.5198,90.2201,16.55,35,25,1.33,IN,1708274039
309,suva,-18.1416,178.4415,24.71,94,75,2.57,FJ,1708274039
310,yamada,39.4667,141.95,8.07,80,2,2.69,JP,1708274039
311,san pedro pochutla,15.7333,-96.4667,28.84,46,40,2.58,MX,1708274040
312,popayan,2.4382,-76.6132,26.68,48,96,1.36,CO,1708273935
313,aykhal,66.0,111.5,-24.51,98,100,2.59,RU,1708274041
314,kone,-21.0595,164.8658,23.28,89,1,1.88,NC,1708274041
315,sirte,31.2089,16.5887,16.44,69,100,6.7,LY,1708274042
316,mont-dore,-22.2833,166.5833,22.99,85,2,3.1,NC,1708274042
317,lethem,3.3803,-59.7968,36.76,31,31,5.5,GY,1708274043
318,aripuana,-9.1667,-60.6333,26.03,85,100,1.51,BR,1708274043
319,penhalonga,-18.8911,32.6978,19.21,68,5,1.56,ZW,1708274044
320,el galpon,-25.3807,-64.6526,33.07,43,80,2.39,AR,1708274044
321,dorado,18.4588,-66.2677,31.77,61,40,6.69,PR,1708274045
322,alofi,-19.0595,-169.9187,25.94,73,95,5.66,NU,1708274045
323,enewetak,11.3474,162.3373,26.09,78,90,6.66,MH,1708274045
324,harper,4.375,-7.7169,29.66,70,98,3.51,LR,1708274045
325,mahanje,-9.9333,35.3333,20.9,93,100,0.46,TZ,1708274046
326,kencong,-8.2833,113.3667,25.0,87,100,1.17,ID,1708274046
327,palembang,-2.9167,104.7458,26.05,94,40,1.54,ID,1708274046
328,port lincoln,-34.7333,135.8667,18.51,82,19,6.24,AU,1708274047
329,buka,40.8108,69.1986,-0.02,100,100,2.21,UZ,1708274047
330,mae chan,20.1467,99.8526,20.81,26,0,1.08,TH,1708274047
331,ko lanta,7.5336,99.0865,26.54,80,55,5.75,TH,1708274047
332,volnovakha,47.601,37.4967,0.81,81,100,1.92,UA,1708274048
333,spring creek,40.7266,-115.5859,1.56,91,98,3.86,US,1708274048
334,guerrero negro,27.9769,-114.0611,16.67,70,68,6.57,MX,1708274048
335,daru,-9.0763,143.2092,26.94,84,76,1.6,PG,1708274049
336,puerto lempira,15.2667,-83.7667,29.08,70,75,4.12,HN,1708274049
337,keflavik,64.0049,-22.5624,6.95,87,75,5.66,IS,1708274049
338,glubokoye,50.1456,82.3114,-32.14,75,40,3.0,KZ,1708274049
339,maqat,47.65,53.3167,-8.14,74,31,4.64,KZ,1708274049
340,happy valley-goose bay,53.3168,-60.3315,-11.83,79,100,3.6,CA,1708274050
341,mangrol,21.1167,70.1167,23.47,72,54,3.86,IN,1708274050
342,semporna,4.4818,118.6112,25.78,85,70,2.84,MY,1708274050
343,al hillah,32.4801,44.4353,16.44,52,0,3.59,IQ,1708274050
344,tipasa,36.5897,2.4475,15.55,87,53,2.26,DZ,1708274051
345,chimoio,-19.1164,33.4833,28.92,54,75,2.46,MZ,1708274051
346,vadso,70.0744,29.7487,-3.91,86,75,5.14,NO,1708274051
347,suleja,9.1758,7.1808,35.55,13,54,1.7,NG,1708274051
348,moissala,8.3404,17.7663,31.87,17,98,0.47,TD,1708274051
349,dublyany,49.9041,24.0864,1.2,68,100,0.75,UA,1708274052
350,edd,13.9297,41.6925,24.99,76,24,6.66,ER,1708274052
351,dornbirn,47.4167,9.7331,11.54,89,100,0.85,AT,1708274052
352,vorkuta,67.5,64.0,-14.83,95,100,8.95,RU,1708274052
353,sofiyivka,48.0493,33.8746,3.33,95,100,5.35,UA,1708274052
354,kapuskasing,49.4169,-82.4331,-12.95,72,100,8.23,CA,1708274053
355,makushino,55.2103,67.2442,-24.93,98,6,2.97,RU,1708274053
356,rehoboth,-23.3167,17.0833,32.47,8,46,9.67,NA,1708274053
357,tolanaro,-25.0319,46.9987,25.04,88,75,6.17,MG,1708274053
358,atamyrat,37.8357,65.2106,2.59,39,58,4.69,TM,1708274054
359,puerto deseado,-47.7503,-65.8938,22.21,29,95,8.78,AR,1708274054
360,prince george,53.9166,-122.753,-14.31,85,100,0.0,CA,1708274054
361,tonj,7.2737,28.6822,31.97,14,62,2.03,SS,1708274054
362,saint-pierre,-21.3393,55.4781,26.82,69,0,11.83,RE,1708274059
363,cockburn town,21.4612,-71.1419,25.77,83,45,8.31,TC,1708274059
364,laojunmiao,39.8333,97.7333,-10.65,66,98,4.19,CN,1708274060
365,pindushi,62.9152,34.58,-7.14,88,73,4.13,RU,1708274060
366,bengkulu,-3.8004,102.2655,25.62,90,98,1.88,ID,1708274060
367,montevideo,-34.8335,-56.1674,27.01,69,75,5.14,UY,1708273823
368,antonio enes,-16.2325,39.9086,27.66,81,47,4.85,MZ,1708274061
369,lagos,6.5833,3.75,32.18,52,29,4.1,NG,1708273200
370,marbletown,41.8834,-74.1132,0.68,48,81,3.58,US,1708274061
371,dryden,49.7833,-92.7503,-9.84,67,100,3.6,CA,1708274061
372,huicungo,-7.2833,-76.8,33.39,49,44,1.1,PE,1708274061
373,yozgat,39.5833,35.3333,3.56,75,96,4.95,TR,1708274062
374,maquoketa,42.0689,-90.6657,2.97,49,0,5.92,US,1708274062
375,phan thiet,10.9333,108.1,23.32,87,2,3.24,VN,1708274062
376,katsuura,35.1333,140.3,14.89,72,24,6.75,JP,1708274062
377,muroto-misakicho,33.2833,134.15,17.08,70,71,4.92,JP,1708274063
378,la paz,-16.5,-68.15,14.21,68,75,3.09,BO,1708273806
379,tucuma,-0.1833,-50.05,28.15,77,47,5.27,BR,1708274063
380,xinyuan,37.3,99.0,-7.18,61,42,2.37,CN,1708274063
381,caloto,3.0359,-76.4079,29.23,56,86,1.53,CO,1708274064
382,tabuk,17.4189,121.4443,19.98,91,0,1.97,PH,1708274064
383,severo-yeniseyskiy,60.3725,93.0408,-35.79,100,86,1.34,RU,1708274065
384,las khorey,11.1595,48.1967,26.07,70,36,0.74,SO,1708274065
385,pathein,16.7833,94.7333,20.13,63,0,3.59,MM,1708274065
386,tobelo,1.7284,128.0095,25.92,85,71,1.24,ID,1708274065
387,senador guiomard,-10.1522,-67.7392,30.86,44,55,2.77,BR,1708274066
388,kontcha,7.9667,12.2333,33.99,12,53,2.25,CM,1708274066
389,khemisset,33.6667,-6.25,21.0,46,1,6.36,MA,1708274066
390,kefamenanu,-9.4467,124.4781,22.48,95,64,1.1,ID,1708274066
391,castillos,-34.1667,-53.8333,27.55,69,82,3.73,UY,1708274067
392,mersing,2.4312,103.8405,26.95,89,40,3.6,MY,1708274067
393,usogorsk,63.4106,48.6872,-9.07,93,100,2.87,RU,1708274067
394,divinopolis,-20.1389,-44.8839,29.85,50,54,3.85,BR,1708274068
395,at-bashi,41.1702,75.8106,-6.29,96,100,0.34,KG,1708274068
396,kutum,14.2,24.6667,23.22,15,14,5.03,SD,1708274068
397,afif,23.9065,42.9172,18.19,22,9,5.15,SA,1708274068
398,yokadouma,3.5167,15.05,31.14,29,84,1.17,CM,1708274068
399,kingston,17.997,-76.7936,31.8,63,20,9.26,JM,1708274069
400,el bolson,-41.9667,-71.5167,29.14,18,34,1.77,AR,1708273831
401,broken hill,-31.95,141.4333,25.18,23,7,4.87,AU,1708274069
402,larache,35.1932,-6.1557,18.98,66,3,4.88,MA,1708274069
403,sisimiut,66.9395,-53.6735,-13.5,93,100,3.23,GL,1708274069
404,jumla,29.2747,82.1838,7.37,65,99,1.44,NP,1708274070
405,mwinilunga,-11.7358,24.4293,23.58,56,99,0.22,ZM,1708274070
406,wongsorejo,-7.9908,114.4009,26.22,88,99,2.2,ID,1708274070
407,bull savanna,17.8868,-77.5902,27.68,63,43,8.63,JM,1708274070
408,miquelon,47.0975,-56.3814,-3.0,64,100,17.47,PM,1708274070
409,dire dawa,9.5931,41.8661,26.08,46,38,2.46,ET,1708274071
410,harrismith,-28.2728,29.1295,17.21,84,87,0.83,ZA,1708274071
411,canutama,-6.5339,-64.3831,31.58,58,93,1.0,BR,1708274071
412,ermelo,-26.5333,29.9833,16.94,94,87,2.6,ZA,1708274071
413,luga,58.7372,29.8453,-5.79,86,4,3.57,RU,1708274072
414,painesville,41.7245,-81.2457,-1.92,64,40,10.29,US,1708274072
415,parauna,-16.9478,-50.4486,28.11,60,99,4.24,BR,1708274072
416,barah,13.7,30.3667,24.3,11,54,5.3,SD,1708274072
417,monterey,36.2505,-121.2516,12.32,86,83,4.07,US,1708273928
418,selkirk,50.1436,-96.8845,-8.28,72,45,3.13,CA,1708274073
419,portland,45.5234,-122.6762,5.6,93,100,3.6,US,1708273433
420,nyagan,62.1406,65.3936,-14.16,87,96,6.24,RU,1708274073
421,kokopo,-4.352,152.2633,25.96,86,76,2.76,PG,1708274073
422,richards bay,-28.783,32.0377,23.61,79,79,4.05,ZA,1708274074
423,crane,31.3974,-102.3501,5.24,38,37,2.72,US,1708274074
424,varzea da palma,-17.5981,-44.7308,28.29,65,100,1.98,BR,1708274074
425,kalemie,-5.9475,29.1947,23.05,87,100,4.44,CD,1708274074
426,salekhard,66.53,66.6019,-13.75,94,100,8.71,RU,1708274075
427,vegueta,-11.0231,-77.6431,26.08,74,44,4.11,PE,1708274075
428,san sebastian de la gomera,28.0916,-17.1133,27.43,60,0,2.06,ES,1708273871
429,ambon,-3.6954,128.1814,27.08,83,40,1.03,ID,1708274075
430,luderitz,-26.6481,15.1594,20.77,69,0,8.31,NA,1708274075
431,klaksvik,62.2266,-6.589,7.51,84,60,3.29,FO,1708274076
432,nagqu,31.5,92.0,-6.74,25,42,2.06,CN,1708274076
433,linfen,36.0889,111.5189,5.07,29,48,2.38,CN,1708274076
434,acarau,-2.8856,-40.12,29.42,70,99,4.78,BR,1708274076
435,mandan,46.8267,-100.8896,-1.79,67,0,0.45,US,1708273994
436,geraldton,-28.7667,114.6,28.23,24,99,1.03,AU,1708274077
437,sabang,5.8933,95.3214,28.3,71,94,6.05,ID,1708274077
438,cabedelo,-6.9811,-34.8339,31.37,72,28,4.3,BR,1708274077
439,balikpapan,-1.2675,116.8289,26.55,78,20,2.57,ID,1708274078
440,rogozno,52.7523,16.9905,4.43,70,100,4.57,PL,1708274078
441,champerico,14.3,-91.9167,33.3,59,93,7.23,GT,1708274078
442,barra de santo antonio,-9.4047,-35.5072,28.6,73,97,4.01,BR,1708274079
443,el rama,12.1596,-84.2195,32.33,52,48,1.4,NI,1708274079
444,inhambane,-23.865,35.3833,28.99,79,40,4.63,MZ,1708274079
445,yaren,-0.5472,166.916,28.88,77,100,4.54,NR,1708274079
446,kelibia,36.8476,11.0939,16.14,82,20,2.06,TN,1708274080
447,jagatsinghapur,20.2667,86.1667,25.2,84,1,1.62,IN,1708274080
448,coyhaique,-45.5752,-72.0662,18.34,39,75,4.63,CL,1708274080
449,nyandoma,61.669,40.1991,-5.46,92,100,4.74,RU,1708274081
450,hjo,58.3013,14.2878,1.99,79,100,5.03,SE,1708274081
451,kruisfontein,-34.0033,24.7314,18.3,76,0,4.79,ZA,1708274081
452,nizhniy odes,63.6445,54.856,-8.24,93,100,5.91,RU,1708274081
453,hornell,42.3279,-77.6611,-3.12,67,94,1.34,US,1708274081
454,akureyri,65.6835,-18.0878,3.96,75,20,5.14,IS,1708274082
455,prado,-17.3411,-39.2208,25.44,92,100,4.42,BR,1708274082
456,queenstown,-31.8976,26.8753,17.61,78,1,7.5,ZA,1708273813
457,samalut,28.3121,30.7101,16.45,42,1,3.28,EG,1708274082
458,moroni,-11.7022,43.2551,27.54,79,99,1.43,KM,1708274083
459,imbituba,-28.24,-48.6703,27.02,72,36,4.21,BR,1708274083
460,joshimath,30.5667,79.5667,8.31,95,100,0.91,IN,1708274083
461,ekibastuz,51.6667,75.3667,-27.12,100,96,1.76,KZ,1708274083
462,smithers,54.7804,-127.1743,-4.82,100,75,0.0,CA,1708274083
463,port alfred,-33.5906,26.891,22.32,84,79,2.68,ZA,1708274083
464,brainerd,46.358,-94.2008,-1.08,59,0,6.17,US,1708274084
465,acajutla,13.5928,-89.8275,30.51,58,5,5.01,SV,1708274084
466,toliara,-23.35,43.6667,28.18,66,66,5.25,MG,1708274084
467,yeniseysk,58.4497,92.1703,-37.25,100,46,0.26,RU,1708274084
468,opuwo,-18.0607,13.84,30.36,21,82,6.41,NA,1708274085
469,adrar,20.5022,-10.0711,31.75,7,48,8.75,MR,1708274085
470,holualoa,19.6228,-155.9522,18.26,82,20,1.54,US,1708274085
471,ola,59.5833,151.2833,-20.95,86,100,2.05,RU,1708274085
472,chegdomyn,51.1167,133.0167,-12.6,96,100,1.61,RU,1708273948
473,isangel,-19.55,169.2667,25.48,87,80,5.04,VU,1708274086
474,hilo,19.7297,-155.09,21.85,82,100,4.12,US,1708274086
475,den burg,53.0542,4.7972,9.42,95,75,9.26,NL,1708274086
476,nishinoomote,30.7333,131.0,19.05,80,94,8.93,JP,1708274087
477,malango,-2.9627,119.9001,20.89,97,100,0.86,ID,1708274087
478,kayangel,8.0823,134.7173,27.35,78,55,8.94,PW,1708274087
479,myshkin,57.7897,38.4545,-3.84,93,100,4.44,RU,1708274088
480,kerikeri,-35.2268,173.9474,16.06,91,100,1.26,NZ,1708274088
481,letlhakeng,-24.0944,25.0298,31.2,27,73,1.17,BW,1708274088
482,spring lake,35.1679,-78.9728,5.99,38,0,1.54,US,1708274088
483,yigo village,13.5361,144.8886,25.62,85,40,6.69,GU,1708274089
484,mina clavero,-31.721,-65.0062,27.25,49,58,3.79,AR,1708274089
485,mammoth lakes,37.6485,-118.9721,1.86,62,0,0.0,US,1708274089
486,sinabang,2.4803,96.3801,27.41,83,99,1.5,ID,1708274089
487,callao,-12.0667,-77.15,27.16,65,0,4.12,PE,1708273362
488,birobidzhan,48.8,132.95,-5.66,97,100,1.32,RU,1708274090
489,stetten am kalten markt,48.1242,9.0778,9.48,92,100,2.14,DE,1708274090
490,kangiwa,12.5521,3.8187,34.28,7,65,2.58,NG,1708274090
491,mata-utu,-13.2816,-176.1745,28.64,84,100,8.53,WF,1708274091
492,kotlas,61.2611,46.6556,-6.08,93,90,3.58,RU,1708274091
493,lindi,-10.0,39.7167,25.83,97,100,2.13,TZ,1708274091
494,huilong,31.8111,121.655,13.79,97,61,4.49,CN,1708274092
495,san agustin de valle fertil,-30.6335,-67.4682,28.7,42,86,1.57,AR,1708274092
496,ulladulla,-35.35,150.4667,19.99,96,100,3.58,AU,1708274092
497,ilheus,-14.7889,-39.0494,29.9,74,75,5.14,BR,1708274092
498,urangan,-25.3,152.9,22.33,91,2,3.58,AU,1708274092
499,rabo de peixe,37.8,-25.5833,17.77,99,75,3.09,PT,1708274093
500,saint-francois,46.4154,3.9054,10.23,78,0,1.03,FR,1708274093
501,caucete,-31.6518,-68.2811,33.21,26,16,5.87,AR,1708274093
502,athens,37.9795,23.7162,16.29,63,20,2.57,GR,1708273830
503,beneditinos,-5.45,-42.3667,33.04,53,85,1.74,BR,1708274094
504,rustavi,41.5495,44.9932,2.84,93,100,3.09,GE,1708274094
505,mtambile,-5.3833,39.7,27.96,82,64,5.9,TZ,1708274094
506,greymouth,-42.4667,171.2,11.9,89,54,1.75,NZ,1708274094
507,bairnsdale,-37.8333,147.6167,13.92,95,2,2.06,AU,1708274095
508,merizo village,13.2658,144.6691,26.31,89,10,6.7,GU,1708274095
509,elva,58.2225,26.4211,-1.55,74,8,1.54,EE,1708274095
510,blagoveshchenka,52.8333,79.8667,-26.4,98,16,2.83,RU,1708274095
511,las tablas,7.7667,-80.2833,33.43,99,95,4.3,PA,1708274096
512,amahai,-3.3333,128.9167,26.27,84,88,2.46,ID,1708274096
513,bismarck,46.8083,-100.7837,-1.88,67,0,0.45,US,1708273919
514,yanbu,24.0891,38.0637,24.02,43,0,9.26,SA,1708274096
515,colonel hill,22.7667,-74.2167,25.75,80,95,6.33,BS,1708274096
516,baiti,13.745,-14.7482,39.99,9,1,2.92,SN,1708274097
517,boden,65.8252,21.6886,-14.0,99,49,0.98,SE,1708274097
518,greenville,35.6127,-77.3663,4.52,44,100,0.89,US,1708273903
519,san rafael del yuma,18.4299,-68.6739,31.11,55,6,6.66,DO,1708274098
520,sao joao da barra,-21.6403,-41.0511,33.05,78,85,4.47,BR,1708274098
521,baki,-7.6128,110.7839,25.83,87,100,2.55,ID,1708274098
522,dul'durga,50.6761,113.5931,-26.15,78,81,5.24,RU,1708274098
523,papao,-17.75,-149.55,26.82,77,97,6.27,PF,1708274099
524,lulea,65.5842,22.1547,-13.96,85,0,1.03,SE,1708274099
525,bansang,13.4333,-14.65,40.22,10,0,2.76,GM,1708274099
526,yashikira,9.7667,3.4,36.09,11,37,1.49,NG,1708274099
527,sona,45.4388,10.8255,13.47,76,88,1.54,IT,1708274100
528,massenya,11.4039,16.1705,31.21,13,93,1.66,TD,1708274100
529,meulaboh,4.1363,96.1285,26.17,87,100,1.24,ID,1708274100
530,colonia,50.9333,6.95,11.36,83,100,4.12,DE,1708273890
531,copiapo,-27.3667,-70.3333,17.83,38,19,3.91,CL,1708273911
532,maralal,1.0968,36.698,21.8,47,99,4.52,KE,1708274101
533,cide,41.8921,33.0044,6.09,86,100,2.8,TR,1708274102
534,mayahi,13.9553,7.6712,29.49,9,25,2.73,NE,1708274102
535,wabag,-5.4781,143.7021,12.58,97,99,1.41,PG,1708274102
536,chabahar,25.2919,60.643,24.49,72,3,8.92,IR,1708274103
537,siguiri,11.6667,-9.5,37.85,7,37,1.5,GN,1708274103
538,bria,6.5423,21.9863,29.74,19,100,2.1,CF,1708274103
539,fort liberte,19.6678,-71.8397,29.23,53,34,4.65,HT,1708274104
540,turpan,42.9333,89.1667,-5.3,27,51,0.51,CN,1708274104
541,galesong,-5.3166,119.3661,27.01,83,60,3.29,ID,1708274105
542,plouzane,48.3833,-4.6167,12.18,82,100,6.17,FR,1708274105
543,san ignacio,17.1561,-89.0714,21.08,94,75,4.12,BZ,1708274105
544,estevan,49.1334,-102.9842,-8.81,85,0,2.06,CA,1708274106
545,magadan,59.5667,150.8,-21.15,79,100,1.81,RU,1708274106
546,akjoujt,19.6969,-14.4164,36.95,5,0,5.82,MR,1708274106
547,nemuro,43.3236,145.575,0.18,84,2,6.0,JP,1708274107
548,tidjikja,18.5564,-11.4271,33.37,5,93,5.88,MR,1708274107
549,nanpiao,41.0982,120.7479,-3.69,87,100,8.27,CN,1708274107
550,tweed heads,-28.1817,153.547,23.31,97,44,2.57,AU,1708273921
551,mirriah,13.7073,9.1501,33.34,7,5,3.6,NE,1708274108
552,pacasmayo,-7.4006,-79.5714,27.09,70,67,5.23,PE,1708274108
553,taroa,8.7058,171.2275,27.72,75,74,7.35,MH,1708274108
554,fatezh,52.0891,35.8632,-1.01,92,93,4.1,RU,1708274109
555,besisahar,28.2313,84.3761,14.42,45,60,2.72,NP,1708274109
556,moyale,3.5167,39.0584,29.69,27,86,6.73,KE,1708274109
557,calama,-22.4667,-68.9333,26.27,18,0,8.75,CL,1708274110
558,iron river,46.0927,-88.6423,-3.58,63,100,6.02,US,1708274110
559,simrishamn,55.5565,14.3504,3.53,89,100,9.28,SE,1708274110
560,jaleshwar,26.6471,85.8008,15.43,31,23,1.66,NP,1708274111
561,alaghsas,17.0187,8.0168,29.94,6,0,7.2,NE,1708274111
562,dhromolaxia,34.8755,33.5868,14.29,84,75,1.54,CY,1708274111
563,gudari,19.35,83.7833,23.13,63,49,1.17,IN,1708274112
564,asau,46.4333,26.4,4.6,96,100,1.08,RO,1708274112
565,dumfries,38.5676,-77.328,6.23,38,99,3.96,US,1708274112
566,pemangkat,1.1667,108.9667,25.63,90,100,2.43,ID,1708274113
567,michurinsk,52.8978,40.4907,-2.52,91,100,4.0,RU,1708274113
